{
  "type": "FeatureCollection",
  "features": [
    {
      "type": "Feature",
      "geometry": {
        "type": "Point",
        "coordinates": [
          9.42,
          55.04
        ]
      },
      "properties": {
        "code": "AABENRAADE",
        "name": "Aabenraa",
        "country_code": "Denmark",
        "zone_code": "South Denmark"
      }
    },
    {
      "type": "Feature",
      "geometry": {
        "type": "Point",
        "coordinates": [
          -13.47,
          27.07
        ]
      },
      "properties": {
        "code": "LAYOUNEMOR",
        "name": "La\u00e2youne",
        "country_code": "Morocco",
        "zone_code": "Western Sahara"
      }
    },
    {
      "type": "Feature",
      "geometry": {
        "type": "Point",
        "coordinates": [
          9.92,
          57.05
        ]
      },
      "properties": {
        "code": "AALBORGDEN",
        "name": "Aalborg",
        "country_code": "Denmark",
        "zone_code": "North Jutland"
      }
    },
    {
      "type": "Feature",
      "geometry": {
        "type": "Point",
        "coordinates": [
          10.06,
          57.05
        ]
      },
      "properties": {
        "code": "AALBORGDEN_1",
        "name": "Aalborg",
        "country_code": "Denmark",
        "zone_code": "North Denmark Region"
      }
    },
    {
      "type": "Feature",
      "geometry": {
        "type": "Point",
        "coordinates": [
          10.05,
          57.06
        ]
      },
      "properties": {
        "code": "AALBORGDEN_2",
        "name": "Aalborg",
        "country_code": "Denmark",
        "zone_code": "North Jutland"
      }
    },
    {
      "type": "Feature",
      "geometry": {
        "type": "Point",
        "coordinates": [
          9.96,
          57.06
        ]
      },
      "properties": {
        "code": "AALBORGDEN_3",
        "name": "Aalborg",
        "country_code": "Denmark",
        "zone_code": "North Jutland"
      }
    },
    {
      "type": "Feature",
      "geometry": {
        "type": "Point",
        "coordinates": [
          10.24,
          56.16
        ]
      },
      "properties": {
        "code": "AARHUSDENM",
        "name": "Aarhus",
        "country_code": "Denmark",
        "zone_code": "Aarhus"
      }
    },
    {
      "type": "Feature",
      "geometry": {
        "type": "Point",
        "coordinates": [
          48.27,
          30.34
        ]
      },
      "properties": {
        "code": "ABADANIRAN",
        "name": "Abadan",
        "country_code": "Iran",
        "zone_code": "Khuzestan"
      }
    },
    {
      "type": "Feature",
      "geometry": {
        "type": "Point",
        "coordinates": [
          148.09,
          -19.86
        ]
      },
      "properties": {
        "code": "ABBOTPOINT",
        "name": "Abbot Point",
        "country_code": "Australia",
        "zone_code": "Queensland"
      }
    },
    {
      "type": "Feature",
      "geometry": {
        "type": "Point",
        "coordinates": [
          -2.08,
          57.14
        ]
      },
      "properties": {
        "code": "ABERDEENUK",
        "name": "Aberdeen",
        "country_code": "U.K.",
        "zone_code": "Scotland"
      }
    },
    {
      "type": "Feature",
      "geometry": {
        "type": "Point",
        "coordinates": [
          -4.02,
          5.27
        ]
      },
      "properties": {
        "code": "ABIDJANIVO",
        "name": "Abidjan",
        "country_code": "Ivory Coast",
        "zone_code": "Abidjan"
      }
    },
    {
      "type": "Feature",
      "geometry": {
        "type": "Point",
        "coordinates": [
          22.22,
          60.44
        ]
      },
      "properties": {
        "code": "TURKUFINLA",
        "name": "Turku",
        "country_code": "Finland",
        "zone_code": "Southwest Finland"
      }
    },
    {
      "type": "Feature",
      "geometry": {
        "type": "Point",
        "coordinates": [
          4.47,
          5.7
        ]
      },
      "properties": {
        "code": "ABONIGERIA",
        "name": "Abo",
        "country_code": "Nigeria",
        "zone_code": "Ondo State"
      }
    },
    {
      "type": "Feature",
      "geometry": {
        "type": "Point",
        "coordinates": [
          134.61,
          34.77
        ]
      },
      "properties": {
        "code": "HIMEJIJAPA",
        "name": "Himeji",
        "country_code": "Japan",
        "zone_code": "Hyogo"
      }
    },
    {
      "type": "Feature",
      "geometry": {
        "type": "Point",
        "coordinates": [
          -3.03,
          43.35
        ]
      },
      "properties": {
        "code": "BILBAOSPAI",
        "name": "Bilbao",
        "country_code": "Spain",
        "zone_code": "Basque Country"
      }
    },
    {
      "type": "Feature",
      "geometry": {
        "type": "Point",
        "coordinates": [
          53.08,
          25.46
        ]
      },
      "properties": {
        "code": "ABUALBUKHO",
        "name": "Abu Al Bukhoosh",
        "country_code": "U.A.E.",
        "zone_code": "Abu Dhabi"
      }
    },
    {
      "type": "Feature",
      "geometry": {
        "type": "Point",
        "coordinates": [
          49.69,
          27.3
        ]
      },
      "properties": {
        "code": "JUBAILSAUD",
        "name": "Jubail",
        "country_code": "Saudi Arabia",
        "zone_code": "Eastern Province"
      }
    },
    {
      "type": "Feature",
      "geometry": {
        "type": "Point",
        "coordinates": [
          54.39,
          24.53
        ]
      },
      "properties": {
        "code": "ABUDHABIUA",
        "name": "Abu Dhabi",
        "country_code": "U.A.E.",
        "zone_code": "Abu Dhabi"
      }
    },
    {
      "type": "Feature",
      "geometry": {
        "type": "Point",
        "coordinates": [
          105.29,
          6.13
        ]
      },
      "properties": {
        "code": "ABUMARINET",
        "name": "Abu Marine Terminal",
        "country_code": "Malaysia",
        "zone_code": "Sarawak"
      }
    },
    {
      "type": "Feature",
      "geometry": {
        "type": "Point",
        "coordinates": [
          140.74,
          40.84
        ]
      },
      "properties": {
        "code": "ABURAKAWAJ",
        "name": "Aburakawa",
        "country_code": "Japan",
        "zone_code": "Iwate"
      }
    },
    {
      "type": "Feature",
      "geometry": {
        "type": "Point",
        "coordinates": [
          131.4,
          31.57
        ]
      },
      "properties": {
        "code": "ABURATSUJA",
        "name": "Aburatsu",
        "country_code": "Japan",
        "zone_code": "Miyazaki"
      }
    },
    {
      "type": "Feature",
      "geometry": {
        "type": "Point",
        "coordinates": [
          -89.84,
          13.56
        ]
      },
      "properties": {
        "code": "ACAJUTLAEL",
        "name": "Acajutla",
        "country_code": "El Salvador",
        "zone_code": "Sonsonate"
      }
    },
    {
      "type": "Feature",
      "geometry": {
        "type": "Point",
        "coordinates": [
          28.23,
          36.45
        ]
      },
      "properties": {
        "code": "ACANDIAGRE",
        "name": "Acandia",
        "country_code": "Greece",
        "zone_code": "South Aegean"
      }
    },
    {
      "type": "Feature",
      "geometry": {
        "type": "Point",
        "coordinates": [
          -41.0,
          -21.84
        ]
      },
      "properties": {
        "code": "SOJOODABAR",
        "name": "S\u00e3o Jo\u00e3o da Barra",
        "country_code": "Brazil",
        "zone_code": "Rio de Janeiro"
      }
    },
    {
      "type": "Feature",
      "geometry": {
        "type": "Point",
        "coordinates": [
          32.48,
          29.88
        ]
      },
      "properties": {
        "code": "ADABIYAHEG",
        "name": "Adabiyah",
        "country_code": "Egypt",
        "zone_code": "Suez"
      }
    },
    {
      "type": "Feature",
      "geometry": {
        "type": "Point",
        "coordinates": [
          -176.65,
          51.85
        ]
      },
      "properties": {
        "code": "ADAKUSA",
        "name": "Adak",
        "country_code": "U.S.A.",
        "zone_code": "Alaska"
      }
    },
    {
      "type": "Feature",
      "geometry": {
        "type": "Point",
        "coordinates": [
          24.45,
          36.72
        ]
      },
      "properties": {
        "code": "ADAMASGREE",
        "name": "Adamas",
        "country_code": "Greece",
        "zone_code": "Milos"
      }
    },
    {
      "type": "Feature",
      "geometry": {
        "type": "Point",
        "coordinates": [
          116.63,
          -1.72
        ]
      },
      "properties": {
        "code": "ADANGBAYIN",
        "name": "Adang Bay",
        "country_code": "Indonesia",
        "zone_code": "East Kalimantan"
      }
    },
    {
      "type": "Feature",
      "geometry": {
        "type": "Point",
        "coordinates": [
          138.48,
          -34.78
        ]
      },
      "properties": {
        "code": "ADELAIDEAU",
        "name": "Adelaide",
        "country_code": "Australia",
        "zone_code": "South Australia"
      }
    },
    {
      "type": "Feature",
      "geometry": {
        "type": "Point",
        "coordinates": [
          138.51,
          -34.83
        ]
      },
      "properties": {
        "code": "ADELAIDEAU_1",
        "name": "Adelaide",
        "country_code": "Australia",
        "zone_code": "South Australia"
      }
    },
    {
      "type": "Feature",
      "geometry": {
        "type": "Point",
        "coordinates": [
          44.92,
          12.77
        ]
      },
      "properties": {
        "code": "ADENYEMEN",
        "name": "Aden",
        "country_code": "Yemen",
        "zone_code": "Aden Governorate"
      }
    },
    {
      "type": "Feature",
      "geometry": {
        "type": "Point",
        "coordinates": [
          -90.31,
          29.94
        ]
      },
      "properties": {
        "code": "MISSISSIPP",
        "name": "Mississippi",
        "country_code": "U.S.A.",
        "zone_code": "Mississippi"
      }
    },
    {
      "type": "Feature",
      "geometry": {
        "type": "Point",
        "coordinates": [
          -45.38,
          -23.81
        ]
      },
      "properties": {
        "code": "RIOGRANDEB",
        "name": "Rio Grande",
        "country_code": "Brazil",
        "zone_code": "Rio Grande do Sul"
      }
    },
    {
      "type": "Feature",
      "geometry": {
        "type": "Point",
        "coordinates": [
          23.22,
          39.17
        ]
      },
      "properties": {
        "code": "AEGEANSEAG",
        "name": "Aegean Sea",
        "country_code": "Greece",
        "zone_code": "Greece"
      }
    },
    {
      "type": "Feature",
      "geometry": {
        "type": "Point",
        "coordinates": [
          -69.61,
          18.4
        ]
      },
      "properties": {
        "code": "BOCACHICAD",
        "name": "Boca Chica",
        "country_code": "Dominican Republic",
        "zone_code": "Santo Domingo"
      }
    },
    {
      "type": "Feature",
      "geometry": {
        "type": "Point",
        "coordinates": [
          -9.64,
          30.42
        ]
      },
      "properties": {
        "code": "AGADIRMORO",
        "name": "Agadir",
        "country_code": "Morocco",
        "zone_code": "Souss-Massa"
      }
    },
    {
      "type": "Feature",
      "geometry": {
        "type": "Point",
        "coordinates": [
          5.53,
          3.52
        ]
      },
      "properties": {
        "code": "AGBAMITERM",
        "name": "Agbami Terminal",
        "country_code": "Nigeria",
        "zone_code": "Lagos State"
      }
    },
    {
      "type": "Feature",
      "geometry": {
        "type": "Point",
        "coordinates": [
          22.59,
          38.89
        ]
      },
      "properties": {
        "code": "AGIAMARINA",
        "name": "Agia Marina",
        "country_code": "Greece",
        "zone_code": "Crete"
      }
    },
    {
      "type": "Feature",
      "geometry": {
        "type": "Point",
        "coordinates": [
          23.41,
          37.97
        ]
      },
      "properties": {
        "code": "AGIATRIASG",
        "name": "Agia Trias",
        "country_code": "Greece",
        "zone_code": "Attica"
      }
    },
    {
      "type": "Feature",
      "geometry": {
        "type": "Point",
        "coordinates": [
          23.09,
          37.91
        ]
      },
      "properties": {
        "code": "AGIOITHEOD",
        "name": "Agioi Theodoroi",
        "country_code": "Greece",
        "zone_code": "Corinthia"
      }
    },
    {
      "type": "Feature",
      "geometry": {
        "type": "Point",
        "coordinates": [
          5.01,
          60.42
        ]
      },
      "properties": {
        "code": "AGOTNESNOR",
        "name": "Agotnes",
        "country_code": "Norway",
        "zone_code": "Vestland"
      }
    },
    {
      "type": "Feature",
      "geometry": {
        "type": "Point",
        "coordinates": [
          23.01,
          39.34
        ]
      },
      "properties": {
        "code": "AGRIAGREEC",
        "name": "Agria",
        "country_code": "Greece",
        "zone_code": "Thessaly"
      }
    },
    {
      "type": "Feature",
      "geometry": {
        "type": "Point",
        "coordinates": [
          -90.91,
          30.09
        ]
      },
      "properties": {
        "code": "AGRICOCHEM",
        "name": "Agrico Chemical",
        "country_code": "U.S.A.",
        "zone_code": "Mississippi"
      }
    },
    {
      "type": "Feature",
      "geometry": {
        "type": "Point",
        "coordinates": [
          -67.16,
          18.43
        ]
      },
      "properties": {
        "code": "AGUADILLAP",
        "name": "Aguadilla",
        "country_code": "Puerto Rico",
        "zone_code": "Puerto Rico"
      }
    },
    {
      "type": "Feature",
      "geometry": {
        "type": "Point",
        "coordinates": [
          14.33,
          55.93
        ]
      },
      "properties": {
        "code": "HUSSWEDEN",
        "name": "\u00c5hus",
        "country_code": "Sweden",
        "zone_code": "Sk\u00e5ne County"
      }
    },
    {
      "type": "Feature",
      "geometry": {
        "type": "Point",
        "coordinates": [
          32.41,
          29.58
        ]
      },
      "properties": {
        "code": "AINSUKHNAE",
        "name": "Ain Sukhna",
        "country_code": "Egypt",
        "zone_code": "Suez"
      }
    },
    {
      "type": "Feature",
      "geometry": {
        "type": "Point",
        "coordinates": [
          32.36,
          29.65
        ]
      },
      "properties": {
        "code": "AINSUKHNAE_1",
        "name": "Ain Sukhna",
        "country_code": "Egypt",
        "zone_code": "Suez"
      }
    },
    {
      "type": "Feature",
      "geometry": {
        "type": "Point",
        "coordinates": [
          115.17,
          -21.31
        ]
      },
      "properties": {
        "code": "AIRLIEISLA",
        "name": "Airlie Island",
        "country_code": "Australia",
        "zone_code": "Western Australia"
      }
    },
    {
      "type": "Feature",
      "geometry": {
        "type": "Point",
        "coordinates": [
          -159.78,
          -18.82
        ]
      },
      "properties": {
        "code": "AITUTAKICO",
        "name": "Aitutaki",
        "country_code": "Cook Is.",
        "zone_code": "Cook Islands"
      }
    },
    {
      "type": "Feature",
      "geometry": {
        "type": "Point",
        "coordinates": [
          8.75,
          41.93
        ]
      },
      "properties": {
        "code": "AJACCIOFRA",
        "name": "Ajaccio",
        "country_code": "France",
        "zone_code": "Corsica"
      }
    },
    {
      "type": "Feature",
      "geometry": {
        "type": "Point",
        "coordinates": [
          55.46,
          25.42
        ]
      },
      "properties": {
        "code": "AJMANUAE",
        "name": "Ajman",
        "country_code": "U.A.E.",
        "zone_code": "Ajman"
      }
    },
    {
      "type": "Feature",
      "geometry": {
        "type": "Point",
        "coordinates": [
          24.51,
          65.66
        ]
      },
      "properties": {
        "code": "KEMIFINLAN",
        "name": "Kemi",
        "country_code": "Finland",
        "zone_code": "Lapland"
      }
    },
    {
      "type": "Feature",
      "geometry": {
        "type": "Point",
        "coordinates": [
          139.99,
          35.66
        ]
      },
      "properties": {
        "code": "AKANEHAMAJ",
        "name": "Akanehama",
        "country_code": "Japan",
        "zone_code": "Chiba"
      }
    },
    {
      "type": "Feature",
      "geometry": {
        "type": "Point",
        "coordinates": [
          135.02,
          34.61
        ]
      },
      "properties": {
        "code": "KOBEJAPAN",
        "name": "Kobe",
        "country_code": "Japan",
        "zone_code": "Hyogo"
      }
    },
    {
      "type": "Feature",
      "geometry": {
        "type": "Point",
        "coordinates": [
          135.02,
          34.62
        ]
      },
      "properties": {
        "code": "KOBEJAPAN_1",
        "name": "Kobe",
        "country_code": "Japan",
        "zone_code": "Hyogo"
      }
    },
    {
      "type": "Feature",
      "geometry": {
        "type": "Point",
        "coordinates": [
          5.6,
          58.93
        ]
      },
      "properties": {
        "code": "MOLDENORWA",
        "name": "Molde",
        "country_code": "Norway",
        "zone_code": "M\u00f8re og Romsdal"
      }
    },
    {
      "type": "Feature",
      "geometry": {
        "type": "Point",
        "coordinates": [
          140.06,
          39.75
        ]
      },
      "properties": {
        "code": "AKITAJAPAN",
        "name": "Akita",
        "country_code": "Japan",
        "zone_code": "Akita"
      }
    },
    {
      "type": "Feature",
      "geometry": {
        "type": "Point",
        "coordinates": [
          6.8,
          3.18
        ]
      },
      "properties": {
        "code": "AKPONIGERI",
        "name": "Akpo",
        "country_code": "Nigeria",
        "zone_code": "Rivers State"
      }
    },
    {
      "type": "Feature",
      "geometry": {
        "type": "Point",
        "coordinates": [
          33.03,
          34.57
        ]
      },
      "properties": {
        "code": "AKROTIRICY",
        "name": "Akrotiri",
        "country_code": "Cyprus",
        "zone_code": "Sovereign Base Area"
      }
    },
    {
      "type": "Feature",
      "geometry": {
        "type": "Point",
        "coordinates": [
          48.81,
          29.68
        ]
      },
      "properties": {
        "code": "ALFAWIRAQ",
        "name": "Al-Faw",
        "country_code": "Iraq",
        "zone_code": "Basra Governorate"
      }
    },
    {
      "type": "Feature",
      "geometry": {
        "type": "Point",
        "coordinates": [
          14.28,
          32.66
        ]
      },
      "properties": {
        "code": "ALKHUMSLIB",
        "name": "Al Khums",
        "country_code": "Libya",
        "zone_code": "Al Murgub"
      }
    },
    {
      "type": "Feature",
      "geometry": {
        "type": "Point",
        "coordinates": [
          51.6,
          26.67
        ]
      },
      "properties": {
        "code": "ALRAYYANQA",
        "name": "Al Rayyan",
        "country_code": "Qatar",
        "zone_code": "Al Rayyan"
      }
    },
    {
      "type": "Feature",
      "geometry": {
        "type": "Point",
        "coordinates": [
          52.06,
          26.55
        ]
      },
      "properties": {
        "code": "ALSHAHEENT",
        "name": "Al Shaheen Terminal",
        "country_code": "Qatar",
        "zone_code": "Qatar"
      }
    },
    {
      "type": "Feature",
      "geometry": {
        "type": "Point",
        "coordinates": [
          32.41,
          29.58
        ]
      },
      "properties": {
        "code": "AINSOKHNAE",
        "name": "Ain Sokhna",
        "country_code": "Egypt",
        "zone_code": "Suez"
      }
    },
    {
      "type": "Feature",
      "geometry": {
        "type": "Point",
        "coordinates": [
          5.0,
          5.0
        ]
      },
      "properties": {
        "code": "ALADJANIGE",
        "name": "Aladja",
        "country_code": "Nigeria",
        "zone_code": "Delta"
      }
    },
    {
      "type": "Feature",
      "geometry": {
        "type": "Point",
        "coordinates": [
          19.92,
          60.1
        ]
      },
      "properties": {
        "code": "ALANDFINLA",
        "name": "Aland",
        "country_code": "Finland",
        "zone_code": "Aland Islands"
      }
    },
    {
      "type": "Feature",
      "geometry": {
        "type": "Point",
        "coordinates": [
          72.21,
          21.4
        ]
      },
      "properties": {
        "code": "ALANGINDIA",
        "name": "Alang",
        "country_code": "India",
        "zone_code": "Gujarat"
      }
    },
    {
      "type": "Feature",
      "geometry": {
        "type": "Point",
        "coordinates": [
          1.0,
          58.0
        ]
      },
      "properties": {
        "code": "ALBAUK",
        "name": "Alba",
        "country_code": "U.K.",
        "zone_code": "Scotland"
      }
    },
    {
      "type": "Feature",
      "geometry": {
        "type": "Point",
        "coordinates": [
          50.69,
          26.19
        ]
      },
      "properties": {
        "code": "ALBABAHRAI",
        "name": "Alba",
        "country_code": "Bahrain",
        "zone_code": "Bahrain"
      }
    },
    {
      "type": "Feature",
      "geometry": {
        "type": "Point",
        "coordinates": [
          -40.02,
          -22.15
        ]
      },
      "properties": {
        "code": "CAMPOSDOSG",
        "name": "Campos dos Goytacazes",
        "country_code": "Brazil",
        "zone_code": "Rio de Janeiro"
      }
    },
    {
      "type": "Feature",
      "geometry": {
        "type": "Point",
        "coordinates": [
          -73.75,
          42.63
        ]
      },
      "properties": {
        "code": "ALBANYUSA",
        "name": "Albany",
        "country_code": "U.S.A.",
        "zone_code": "NY"
      }
    },
    {
      "type": "Feature",
      "geometry": {
        "type": "Point",
        "coordinates": [
          117.89,
          -35.04
        ]
      },
      "properties": {
        "code": "ALBANYAUST",
        "name": "Albany",
        "country_code": "Australia",
        "zone_code": "Western Australia"
      }
    },
    {
      "type": "Feature",
      "geometry": {
        "type": "Point",
        "coordinates": [
          48.81,
          29.68
        ]
      },
      "properties": {
        "code": "ALBASRAIRA",
        "name": "Al-Basra",
        "country_code": "Iraq",
        "zone_code": "Basra"
      }
    },
    {
      "type": "Feature",
      "geometry": {
        "type": "Point",
        "coordinates": [
          -0.34,
          53.73
        ]
      },
      "properties": {
        "code": "KINGSTONUP",
        "name": "Kingston upon Hull",
        "country_code": "U.K.",
        "zone_code": "East Riding of Yorkshire"
      }
    },
    {
      "type": "Feature",
      "geometry": {
        "type": "Point",
        "coordinates": [
          -62.71,
          8.33
        ]
      },
      "properties": {
        "code": "ALCASAVENE",
        "name": "Alcasa",
        "country_code": "Venezuela",
        "zone_code": "Bol\u00edvar"
      }
    },
    {
      "type": "Feature",
      "geometry": {
        "type": "Point",
        "coordinates": [
          3.14,
          39.83
        ]
      },
      "properties": {
        "code": "ALCDIASPAI",
        "name": "Alc\u00fadia",
        "country_code": "Spain",
        "zone_code": "Balearic Islands"
      }
    },
    {
      "type": "Feature",
      "geometry": {
        "type": "Point",
        "coordinates": [
          -46.3,
          -23.97
        ]
      },
      "properties": {
        "code": "SANTOSBRAZ",
        "name": "Santos",
        "country_code": "Brazil",
        "zone_code": "S\u00e3o Paulo"
      }
    },
    {
      "type": "Feature",
      "geometry": {
        "type": "Point",
        "coordinates": [
          6.15,
          62.47
        ]
      },
      "properties": {
        "code": "ALESUNDNOR",
        "name": "Alesund",
        "country_code": "Norway",
        "zone_code": "M\u00f8re og Romsdal"
      }
    },
    {
      "type": "Feature",
      "geometry": {
        "type": "Point",
        "coordinates": [
          -0.3,
          53.74
        ]
      },
      "properties": {
        "code": "HULLUK",
        "name": "Hull",
        "country_code": "U.K.",
        "zone_code": "East Yorkshire"
      }
    },
    {
      "type": "Feature",
      "geometry": {
        "type": "Point",
        "coordinates": [
          29.87,
          31.19
        ]
      },
      "properties": {
        "code": "ALEXANDRIA",
        "name": "Alexandria",
        "country_code": "Egypt",
        "zone_code": "Alexandria Governorate"
      }
    },
    {
      "type": "Feature",
      "geometry": {
        "type": "Point",
        "coordinates": [
          25.89,
          40.84
        ]
      },
      "properties": {
        "code": "ALEXANDROU",
        "name": "Alexandroupolis",
        "country_code": "Greece",
        "zone_code": "Eastern Macedonia and Thrace"
      }
    },
    {
      "type": "Feature",
      "geometry": {
        "type": "Point",
        "coordinates": [
          -5.43,
          36.13
        ]
      },
      "properties": {
        "code": "ALGECIRASS",
        "name": "Algeciras",
        "country_code": "Spain",
        "zone_code": "C\u00e1diz"
      }
    },
    {
      "type": "Feature",
      "geometry": {
        "type": "Point",
        "coordinates": [
          3.08,
          36.77
        ]
      },
      "properties": {
        "code": "ALGIERSALG",
        "name": "Algiers",
        "country_code": "Algeria",
        "zone_code": "Algiers Province"
      }
    },
    {
      "type": "Feature",
      "geometry": {
        "type": "Point",
        "coordinates": [
          -89.96,
          29.92
        ]
      },
      "properties": {
        "code": "ALGIERSUSA",
        "name": "Algiers",
        "country_code": "U.S.A.",
        "zone_code": "Louisiana"
      }
    },
    {
      "type": "Feature",
      "geometry": {
        "type": "Point",
        "coordinates": [
          26.95,
          38.83
        ]
      },
      "properties": {
        "code": "ALIAATURKE",
        "name": "Alia\u011fa",
        "country_code": "Turkey",
        "zone_code": "\u0130zmir"
      }
    },
    {
      "type": "Feature",
      "geometry": {
        "type": "Point",
        "coordinates": [
          26.91,
          38.83
        ]
      },
      "properties": {
        "code": "ALIAATURKE_1",
        "name": "Alia\u011fa",
        "country_code": "Turkey",
        "zone_code": "\u0130zmir"
      }
    },
    {
      "type": "Feature",
      "geometry": {
        "type": "Point",
        "coordinates": [
          -0.49,
          38.33
        ]
      },
      "properties": {
        "code": "ALICANTESP",
        "name": "Alicante",
        "country_code": "Spain",
        "zone_code": "Valencian Community"
      }
    },
    {
      "type": "Feature",
      "geometry": {
        "type": "Point",
        "coordinates": [
          1.0,
          38.5
        ]
      },
      "properties": {
        "code": "ALICANTESP_1",
        "name": "Alicante",
        "country_code": "Spain",
        "zone_code": "Alicante"
      }
    },
    {
      "type": "Feature",
      "geometry": {
        "type": "Point",
        "coordinates": [
          24.04,
          38.39
        ]
      },
      "properties": {
        "code": "ALIVERIGRE",
        "name": "Aliveri",
        "country_code": "Greece",
        "zone_code": "Central Greece"
      }
    },
    {
      "type": "Feature",
      "geometry": {
        "type": "Point",
        "coordinates": [
          -89.97,
          29.69
        ]
      },
      "properties": {
        "code": "ALLIANCEUS",
        "name": "Alliance",
        "country_code": "U.S.A.",
        "zone_code": "Ohio"
      }
    },
    {
      "type": "Feature",
      "geometry": {
        "type": "Point",
        "coordinates": [
          -91.06,
          30.21
        ]
      },
      "properties": {
        "code": "SOUTHWOODU",
        "name": "Southwood",
        "country_code": "U.S.A.",
        "zone_code": "Mississippi"
      }
    },
    {
      "type": "Feature",
      "geometry": {
        "type": "Point",
        "coordinates": [
          -2.47,
          36.83
        ]
      },
      "properties": {
        "code": "ALMERIASPA",
        "name": "Almeria",
        "country_code": "Spain",
        "zone_code": "Andalusia"
      }
    },
    {
      "type": "Feature",
      "geometry": {
        "type": "Point",
        "coordinates": [
          -82.36,
          9.26
        ]
      },
      "properties": {
        "code": "ALMIRANTEP",
        "name": "Almirante",
        "country_code": "Panama",
        "zone_code": "Bocas del Toro"
      }
    },
    {
      "type": "Feature",
      "geometry": {
        "type": "Point",
        "coordinates": [
          -56.0,
          -35.12
        ]
      },
      "properties": {
        "code": "ALPHAZONEA",
        "name": "Alpha Zone",
        "country_code": "Argentina",
        "zone_code": "Tsa"
      }
    },
    {
      "type": "Feature",
      "geometry": {
        "type": "Point",
        "coordinates": [
          -97.89,
          22.48
        ]
      },
      "properties": {
        "code": "ALTAMIRAME",
        "name": "Altamira",
        "country_code": "Mexico",
        "zone_code": "Tamaulipas"
      }
    },
    {
      "type": "Feature",
      "geometry": {
        "type": "Point",
        "coordinates": [
          -43.15,
          -22.82
        ]
      },
      "properties": {
        "code": "RIODEJANEI",
        "name": "Rio de Janeiro",
        "country_code": "Brazil",
        "zone_code": "Rio de Janeiro"
      }
    },
    {
      "type": "Feature",
      "geometry": {
        "type": "Point",
        "coordinates": [
          -43.15,
          -22.81
        ]
      },
      "properties": {
        "code": "RIODEJANEI_1",
        "name": "Rio de Janeiro",
        "country_code": "Brazil",
        "zone_code": "Rio de Janeiro"
      }
    },
    {
      "type": "Feature",
      "geometry": {
        "type": "Point",
        "coordinates": [
          29.53,
          40.76
        ]
      },
      "properties": {
        "code": "ALTINDATUR",
        "name": "Alt\u0131nda\u011f",
        "country_code": "Turkey",
        "zone_code": "Ankara"
      }
    },
    {
      "type": "Feature",
      "geometry": {
        "type": "Point",
        "coordinates": [
          9.93,
          53.54
        ]
      },
      "properties": {
        "code": "ALTONAGERM",
        "name": "Altona",
        "country_code": "Germany",
        "zone_code": "Hamburg"
      }
    },
    {
      "type": "Feature",
      "geometry": {
        "type": "Point",
        "coordinates": [
          -60.67,
          -31.93
        ]
      },
      "properties": {
        "code": "ALVEARARGE",
        "name": "Alvear",
        "country_code": "Argentina",
        "zone_code": "Corrientes"
      }
    },
    {
      "type": "Feature",
      "geometry": {
        "type": "Point",
        "coordinates": [
          -90.31,
          29.95
        ]
      },
      "properties": {
        "code": "AMAUSA",
        "name": "Ama",
        "country_code": "U.S.A.",
        "zone_code": "Louisiana"
      }
    },
    {
      "type": "Feature",
      "geometry": {
        "type": "Point",
        "coordinates": [
          135.38,
          34.69
        ]
      },
      "properties": {
        "code": "AMAGASAKIJ",
        "name": "Amagasaki",
        "country_code": "Japan",
        "zone_code": "Hyogo"
      }
    },
    {
      "type": "Feature",
      "geometry": {
        "type": "Point",
        "coordinates": [
          136.85,
          -4.83
        ]
      },
      "properties": {
        "code": "AMAMAPAREI",
        "name": "Amamapare",
        "country_code": "Indonesia",
        "zone_code": "Papua"
      }
    },
    {
      "type": "Feature",
      "geometry": {
        "type": "Point",
        "coordinates": [
          28.7,
          40.97
        ]
      },
      "properties": {
        "code": "AMBARLITUR",
        "name": "Ambarl\u0131",
        "country_code": "Turkey",
        "zone_code": "Istanbul"
      }
    },
    {
      "type": "Feature",
      "geometry": {
        "type": "Point",
        "coordinates": [
          -0.6,
          45.04
        ]
      },
      "properties": {
        "code": "AMBSFRANCE",
        "name": "Amb\u00e8s",
        "country_code": "France",
        "zone_code": "Nouvelle-Aquitaine"
      }
    },
    {
      "type": "Feature",
      "geometry": {
        "type": "Point",
        "coordinates": [
          128.16,
          -3.69
        ]
      },
      "properties": {
        "code": "AMBONINDON",
        "name": "Ambon",
        "country_code": "Indonesia",
        "zone_code": "Maluku"
      }
    },
    {
      "type": "Feature",
      "geometry": {
        "type": "Point",
        "coordinates": [
          35.63,
          34.15
        ]
      },
      "properties": {
        "code": "AMCHITLEBA",
        "name": "Amchit",
        "country_code": "Lebanon",
        "zone_code": "Jbeil"
      }
    },
    {
      "type": "Feature",
      "geometry": {
        "type": "Point",
        "coordinates": [
          -179.72,
          51.44
        ]
      },
      "properties": {
        "code": "AMCHITKAUS",
        "name": "Amchitka",
        "country_code": "U.S.A.",
        "zone_code": "Alaska"
      }
    },
    {
      "type": "Feature",
      "geometry": {
        "type": "Point",
        "coordinates": [
          -90.27,
          29.97
        ]
      },
      "properties": {
        "code": "AMERICANCY",
        "name": "American Cyanamid Co",
        "country_code": "U.S.A.",
        "zone_code": "Mississippi"
      }
    },
    {
      "type": "Feature",
      "geometry": {
        "type": "Point",
        "coordinates": [
          -90.2,
          29.92
        ]
      },
      "properties": {
        "code": "MISSISSIPP_1",
        "name": "Mississippi",
        "country_code": "U.S.A.",
        "zone_code": "Mississippi"
      }
    },
    {
      "type": "Feature",
      "geometry": {
        "type": "Point",
        "coordinates": [
          -90.11,
          29.91
        ]
      },
      "properties": {
        "code": "AMESVILLEU",
        "name": "Amesville",
        "country_code": "U.S.A.",
        "zone_code": "Ohio"
      }
    },
    {
      "type": "Feature",
      "geometry": {
        "type": "Point",
        "coordinates": [
          118.07,
          24.45
        ]
      },
      "properties": {
        "code": "XIAMENCHIN",
        "name": "Xiamen",
        "country_code": "China",
        "zone_code": "Fujian"
      }
    },
    {
      "type": "Feature",
      "geometry": {
        "type": "Point",
        "coordinates": [
          4.88,
          52.4
        ]
      },
      "properties": {
        "code": "AMSTERDAMN",
        "name": "Amsterdam",
        "country_code": "Netherlands",
        "zone_code": "Noord-Holland"
      }
    },
    {
      "type": "Feature",
      "geometry": {
        "type": "Point",
        "coordinates": [
          -70.23,
          11.74
        ]
      },
      "properties": {
        "code": "PUNTOFIJOV",
        "name": "Punto Fijo",
        "country_code": "Venezuela",
        "zone_code": "Falc\u00f3n"
      }
    },
    {
      "type": "Feature",
      "geometry": {
        "type": "Point",
        "coordinates": [
          -171.82,
          52.39
        ]
      },
      "properties": {
        "code": "AMUKTAUSA",
        "name": "Amukta",
        "country_code": "U.S.A.",
        "zone_code": "Alaska"
      }
    },
    {
      "type": "Feature",
      "geometry": {
        "type": "Point",
        "coordinates": [
          -122.57,
          48.51
        ]
      },
      "properties": {
        "code": "ANACORTESU",
        "name": "Anacortes",
        "country_code": "U.S.A.",
        "zone_code": "Washington"
      }
    },
    {
      "type": "Feature",
      "geometry": {
        "type": "Point",
        "coordinates": [
          -149.95,
          61.22
        ]
      },
      "properties": {
        "code": "ANCHORAGEU",
        "name": "Anchorage",
        "country_code": "U.S.A.",
        "zone_code": "Alaska"
      }
    },
    {
      "type": "Feature",
      "geometry": {
        "type": "Point",
        "coordinates": [
          -77.18,
          -11.77
        ]
      },
      "properties": {
        "code": "ANCNPERU",
        "name": "Anc\u00f3n",
        "country_code": "Peru",
        "zone_code": "Lima"
      }
    },
    {
      "type": "Feature",
      "geometry": {
        "type": "Point",
        "coordinates": [
          13.5,
          43.62
        ]
      },
      "properties": {
        "code": "ANCONAITAL",
        "name": "Ancona",
        "country_code": "Italy",
        "zone_code": "Marche"
      }
    },
    {
      "type": "Feature",
      "geometry": {
        "type": "Point",
        "coordinates": [
          -79.91,
          -2.28
        ]
      },
      "properties": {
        "code": "ANDIPORTEC",
        "name": "Andiport",
        "country_code": "Ecuador",
        "zone_code": "Ecuador"
      }
    },
    {
      "type": "Feature",
      "geometry": {
        "type": "Point",
        "coordinates": [
          48.28,
          -13.41
        ]
      },
      "properties": {
        "code": "ANDOANYMAD",
        "name": "Andoany",
        "country_code": "Madagascar",
        "zone_code": "Diana"
      }
    },
    {
      "type": "Feature",
      "geometry": {
        "type": "Point",
        "coordinates": [
          140.02,
          35.5
        ]
      },
      "properties": {
        "code": "ANEGASAKIJ",
        "name": "Anegasaki",
        "country_code": "Japan",
        "zone_code": "Chiba"
      }
    },
    {
      "type": "Feature",
      "geometry": {
        "type": "Point",
        "coordinates": [
          155.55,
          -6.19
        ]
      },
      "properties": {
        "code": "ANEWABAYPA",
        "name": "Anewa Bay",
        "country_code": "Papua New Guinea",
        "zone_code": "Autonomous Region of Bougainville"
      }
    },
    {
      "type": "Feature",
      "geometry": {
        "type": "Point",
        "coordinates": [
          -90.65,
          30.05
        ]
      },
      "properties": {
        "code": "ANGELINLAN",
        "name": "Angelin Landing",
        "country_code": "U.S.A.",
        "zone_code": "Mississippi"
      }
    },
    {
      "type": "Feature",
      "geometry": {
        "type": "Point",
        "coordinates": [
          13.43,
          -5.86
        ]
      },
      "properties": {
        "code": "ANGOANGOCO",
        "name": "Ango Ango",
        "country_code": "Congo",
        "zone_code": "Tshuapa"
      }
    },
    {
      "type": "Feature",
      "geometry": {
        "type": "Point",
        "coordinates": [
          -27.21,
          38.65
        ]
      },
      "properties": {
        "code": "ANGRADOHER",
        "name": "Angra do Hero\u00edsmo",
        "country_code": "Azores",
        "zone_code": "Azores"
      }
    },
    {
      "type": "Feature",
      "geometry": {
        "type": "Point",
        "coordinates": [
          -27.21,
          38.65
        ]
      },
      "properties": {
        "code": "ANGRADOHER_1",
        "name": "Angra Do Heroismo",
        "country_code": "Azores",
        "zone_code": "Azores"
      }
    },
    {
      "type": "Feature",
      "geometry": {
        "type": "Point",
        "coordinates": [
          -44.31,
          -23.01
        ]
      },
      "properties": {
        "code": "ANGRADOSRE",
        "name": "Angra dos Reis",
        "country_code": "Brazil",
        "zone_code": "Rio de Janeiro"
      }
    },
    {
      "type": "Feature",
      "geometry": {
        "type": "Point",
        "coordinates": [
          104.69,
          5.09
        ]
      },
      "properties": {
        "code": "SERIAMALAY",
        "name": "Seria",
        "country_code": "Malaysia",
        "zone_code": "Sarawak"
      }
    },
    {
      "type": "Feature",
      "geometry": {
        "type": "Point",
        "coordinates": [
          -63.09,
          18.2
        ]
      },
      "properties": {
        "code": "ANGUILLAAN",
        "name": "Anguilla",
        "country_code": "Anguilla",
        "zone_code": "Anguilla"
      }
    },
    {
      "type": "Feature",
      "geometry": {
        "type": "Point",
        "coordinates": [
          7.78,
          36.91
        ]
      },
      "properties": {
        "code": "ANNABAALGE",
        "name": "Annaba",
        "country_code": "Algeria",
        "zone_code": "Annaba"
      }
    },
    {
      "type": "Feature",
      "geometry": {
        "type": "Point",
        "coordinates": [
          -122.91,
          49.19
        ]
      },
      "properties": {
        "code": "DELTACANAD",
        "name": "Delta",
        "country_code": "Canada",
        "zone_code": "British Columbia"
      }
    },
    {
      "type": "Feature",
      "geometry": {
        "type": "Point",
        "coordinates": [
          105.61,
          5.19
        ]
      },
      "properties": {
        "code": "JAKARTAIND",
        "name": "Jakarta",
        "country_code": "Indonesia",
        "zone_code": "Java"
      }
    },
    {
      "type": "Feature",
      "geometry": {
        "type": "Point",
        "coordinates": [
          30.65,
          36.85
        ]
      },
      "properties": {
        "code": "ANTALYATUR",
        "name": "Antalya",
        "country_code": "Turkey",
        "zone_code": "Antalya"
      }
    },
    {
      "type": "Feature",
      "geometry": {
        "type": "Point",
        "coordinates": [
          8.33,
          4.15
        ]
      },
      "properties": {
        "code": "KANONIGERI",
        "name": "Kano",
        "country_code": "Nigeria",
        "zone_code": "Kano State"
      }
    },
    {
      "type": "Feature",
      "geometry": {
        "type": "Point",
        "coordinates": [
          0.13,
          49.65
        ]
      },
      "properties": {
        "code": "ANTIFERFRA",
        "name": "Antifer",
        "country_code": "France",
        "zone_code": "Normandy"
      }
    },
    {
      "type": "Feature",
      "geometry": {
        "type": "Point",
        "coordinates": [
          -75.74,
          20.83
        ]
      },
      "properties": {
        "code": "ANTILLACUB",
        "name": "Antilla",
        "country_code": "Cuba",
        "zone_code": "Holgu\u00edn"
      }
    },
    {
      "type": "Feature",
      "geometry": {
        "type": "Point",
        "coordinates": [
          -70.42,
          -23.64
        ]
      },
      "properties": {
        "code": "ANTOFAGAST",
        "name": "Antofagasta",
        "country_code": "Chile",
        "zone_code": "Antofagasta"
      }
    },
    {
      "type": "Feature",
      "geometry": {
        "type": "Point",
        "coordinates": [
          49.28,
          -12.27
        ]
      },
      "properties": {
        "code": "ANTSIRANAN",
        "name": "Antsiranana",
        "country_code": "Madagascar",
        "zone_code": "Diana"
      }
    },
    {
      "type": "Feature",
      "geometry": {
        "type": "Point",
        "coordinates": [
          4.27,
          51.35
        ]
      },
      "properties": {
        "code": "ANTWERPBEL",
        "name": "Antwerp",
        "country_code": "Belgium",
        "zone_code": "Flanders"
      }
    },
    {
      "type": "Feature",
      "geometry": {
        "type": "Point",
        "coordinates": [
          4.26,
          51.29
        ]
      },
      "properties": {
        "code": "ANTWERPBEL_1",
        "name": "Antwerp",
        "country_code": "Belgium",
        "zone_code": "Flanders"
      }
    },
    {
      "type": "Feature",
      "geometry": {
        "type": "Point",
        "coordinates": [
          4.27,
          51.34
        ]
      },
      "properties": {
        "code": "ANTWERPBEL_2",
        "name": "Antwerp",
        "country_code": "Belgium",
        "zone_code": "Flanders"
      }
    },
    {
      "type": "Feature",
      "geometry": {
        "type": "Point",
        "coordinates": [
          4.26,
          51.35
        ]
      },
      "properties": {
        "code": "ANTWERPBEL_3",
        "name": "Antwerp",
        "country_code": "Belgium",
        "zone_code": "Flanders"
      }
    },
    {
      "type": "Feature",
      "geometry": {
        "type": "Point",
        "coordinates": [
          4.32,
          51.28
        ]
      },
      "properties": {
        "code": "ANTWERPBEL_4",
        "name": "Antwerp",
        "country_code": "Belgium",
        "zone_code": "Flanders"
      }
    },
    {
      "type": "Feature",
      "geometry": {
        "type": "Point",
        "coordinates": [
          4.23,
          51.28
        ]
      },
      "properties": {
        "code": "ANTWERPBEL_5",
        "name": "Antwerp",
        "country_code": "Belgium",
        "zone_code": "Flanders"
      }
    },
    {
      "type": "Feature",
      "geometry": {
        "type": "Point",
        "coordinates": [
          105.88,
          -6.06
        ]
      },
      "properties": {
        "code": "ANYERINDON",
        "name": "Anyer",
        "country_code": "Indonesia",
        "zone_code": "Banten"
      }
    },
    {
      "type": "Feature",
      "geometry": {
        "type": "Point",
        "coordinates": [
          105.95,
          -6.02
        ]
      },
      "properties": {
        "code": "CIWANDANIN",
        "name": "Ciwandan",
        "country_code": "Indonesia",
        "zone_code": "Banten"
      }
    },
    {
      "type": "Feature",
      "geometry": {
        "type": "Point",
        "coordinates": [
          122.13,
          29.95
        ]
      },
      "properties": {
        "code": "AOSHANCHIN",
        "name": "Ao Shan",
        "country_code": "China",
        "zone_code": "Shandong"
      }
    },
    {
      "type": "Feature",
      "geometry": {
        "type": "Point",
        "coordinates": [
          129.03,
          32.98
        ]
      },
      "properties": {
        "code": "AOGASHIMAJ",
        "name": "Aogashima",
        "country_code": "Japan",
        "zone_code": "Tokyo"
      }
    },
    {
      "type": "Feature",
      "geometry": {
        "type": "Point",
        "coordinates": [
          140.74,
          40.84
        ]
      },
      "properties": {
        "code": "AOMORIJAPA",
        "name": "Aomori",
        "country_code": "Japan",
        "zone_code": "Aomori"
      }
    },
    {
      "type": "Feature",
      "geometry": {
        "type": "Point",
        "coordinates": [
          3.4,
          6.43
        ]
      },
      "properties": {
        "code": "APAPANIGER",
        "name": "Apapa",
        "country_code": "Nigeria",
        "zone_code": "Lagos State"
      }
    },
    {
      "type": "Feature",
      "geometry": {
        "type": "Point",
        "coordinates": [
          -171.76,
          -13.82
        ]
      },
      "properties": {
        "code": "APIASAMOA",
        "name": "Apia",
        "country_code": "Samoa",
        "zone_code": "Tuamasaga"
      }
    },
    {
      "type": "Feature",
      "geometry": {
        "type": "Point",
        "coordinates": [
          144.66,
          13.46
        ]
      },
      "properties": {
        "code": "APRAGUAM",
        "name": "Apra",
        "country_code": "Guam",
        "zone_code": "Guam"
      }
    },
    {
      "type": "Feature",
      "geometry": {
        "type": "Point",
        "coordinates": [
          34.99,
          29.51
        ]
      },
      "properties": {
        "code": "AQABAJORDA",
        "name": "Aqaba",
        "country_code": "Jordan",
        "zone_code": "Aqaba Governorate"
      }
    },
    {
      "type": "Feature",
      "geometry": {
        "type": "Point",
        "coordinates": [
          34.97,
          29.47
        ]
      },
      "properties": {
        "code": "AQABAJORDA_1",
        "name": "Aqaba",
        "country_code": "Jordan",
        "zone_code": "Aqaba Governorate"
      }
    },
    {
      "type": "Feature",
      "geometry": {
        "type": "Point",
        "coordinates": [
          34.96,
          29.37
        ]
      },
      "properties": {
        "code": "AQABAJORDA_2",
        "name": "Aqaba",
        "country_code": "Jordan",
        "zone_code": "Aqaba Governorate"
      }
    },
    {
      "type": "Feature",
      "geometry": {
        "type": "Point",
        "coordinates": [
          18.34,
          40.91
        ]
      },
      "properties": {
        "code": "AQUILATERM",
        "name": "Aquila Terminal",
        "country_code": "Italy",
        "zone_code": "Abruzzo"
      }
    },
    {
      "type": "Feature",
      "geometry": {
        "type": "Point",
        "coordinates": [
          4.43,
          51.9
        ]
      },
      "properties": {
        "code": "ALPHENAAND",
        "name": "Alphen aan den Rijn",
        "country_code": "Netherlands",
        "zone_code": "South Holland"
      }
    },
    {
      "type": "Feature",
      "geometry": {
        "type": "Point",
        "coordinates": [
          -36.94,
          -11.13
        ]
      },
      "properties": {
        "code": "ARACAJUBRA",
        "name": "Aracaju",
        "country_code": "Brazil",
        "zone_code": "Sergipe"
      }
    },
    {
      "type": "Feature",
      "geometry": {
        "type": "Point",
        "coordinates": [
          -38.5,
          -12.78
        ]
      },
      "properties": {
        "code": "ARATUBRAZI",
        "name": "Aratu",
        "country_code": "Brazil",
        "zone_code": "Bahia"
      }
    },
    {
      "type": "Feature",
      "geometry": {
        "type": "Point",
        "coordinates": [
          40.53,
          64.53
        ]
      },
      "properties": {
        "code": "ARKHANGELS",
        "name": "Arkhangelsk",
        "country_code": "Russia",
        "zone_code": "Arkhangelsk Oblast"
      }
    },
    {
      "type": "Feature",
      "geometry": {
        "type": "Point",
        "coordinates": [
          107.78,
          -5.84
        ]
      },
      "properties": {
        "code": "ARDJUNAIND",
        "name": "Ardjuna",
        "country_code": "Indonesia",
        "zone_code": "East Java"
      }
    },
    {
      "type": "Feature",
      "geometry": {
        "type": "Point",
        "coordinates": [
          2.73,
          56.17
        ]
      },
      "properties": {
        "code": "ARDMOREUK",
        "name": "Ardmore",
        "country_code": "U.K.",
        "zone_code": "Scotland"
      }
    },
    {
      "type": "Feature",
      "geometry": {
        "type": "Point",
        "coordinates": [
          137.93,
          -34.44
        ]
      },
      "properties": {
        "code": "ARDROSSANA",
        "name": "Ardrossan",
        "country_code": "Australia",
        "zone_code": "South Australia"
      }
    },
    {
      "type": "Feature",
      "geometry": {
        "type": "Point",
        "coordinates": [
          8.77,
          58.46
        ]
      },
      "properties": {
        "code": "ARENDALNOR",
        "name": "Arendal",
        "country_code": "Norway",
        "zone_code": "Agder"
      }
    },
    {
      "type": "Feature",
      "geometry": {
        "type": "Point",
        "coordinates": [
          -70.32,
          -18.46
        ]
      },
      "properties": {
        "code": "ARICACHILE",
        "name": "Arica",
        "country_code": "Chile",
        "zone_code": "Arica y Parinacota"
      }
    },
    {
      "type": "Feature",
      "geometry": {
        "type": "Point",
        "coordinates": [
          -13.53,
          28.97
        ]
      },
      "properties": {
        "code": "ARRECIFESP",
        "name": "Arrecife",
        "country_code": "Spain",
        "zone_code": "Las Palmas"
      }
    },
    {
      "type": "Feature",
      "geometry": {
        "type": "Point",
        "coordinates": [
          -74.24,
          40.56
        ]
      },
      "properties": {
        "code": "ARTHURKILL",
        "name": "Arthur Kill",
        "country_code": "U.S.A.",
        "zone_code": "New York"
      }
    },
    {
      "type": "Feature",
      "geometry": {
        "type": "Point",
        "coordinates": [
          -70.04,
          12.52
        ]
      },
      "properties": {
        "code": "ORANJESTAD",
        "name": "Oranjestad",
        "country_code": "Aruba",
        "zone_code": "Aruba"
      }
    },
    {
      "type": "Feature",
      "geometry": {
        "type": "Point",
        "coordinates": [
          97.08,
          5.22
        ]
      },
      "properties": {
        "code": "LHOKSEUMAW",
        "name": "Lhokseumawe",
        "country_code": "Indonesia",
        "zone_code": "Aceh"
      }
    },
    {
      "type": "Feature",
      "geometry": {
        "type": "Point",
        "coordinates": [
          -159.78,
          -21.2
        ]
      },
      "properties": {
        "code": "ARUTANGACO",
        "name": "Arutanga",
        "country_code": "Cook Is.",
        "zone_code": "Aitutaki"
      }
    },
    {
      "type": "Feature",
      "geometry": {
        "type": "Point",
        "coordinates": [
          -159.78,
          -18.82
        ]
      },
      "properties": {
        "code": "ARUTUNGACO",
        "name": "Arutunga",
        "country_code": "Cook Is.",
        "zone_code": "Cook Islands"
      }
    },
    {
      "type": "Feature",
      "geometry": {
        "type": "Point",
        "coordinates": [
          -0.29,
          35.85
        ]
      },
      "properties": {
        "code": "ARZEWALGER",
        "name": "Arzew",
        "country_code": "Algeria",
        "zone_code": "Oran"
      }
    },
    {
      "type": "Feature",
      "geometry": {
        "type": "Point",
        "coordinates": [
          -0.25,
          35.82
        ]
      },
      "properties": {
        "code": "ARZEWALGER_1",
        "name": "Arzew",
        "country_code": "Algeria",
        "zone_code": "Oran"
      }
    },
    {
      "type": "Feature",
      "geometry": {
        "type": "Point",
        "coordinates": [
          -14.39,
          -7.89
        ]
      },
      "properties": {
        "code": "ASCENSIONI",
        "name": "Ascension Island",
        "country_code": "Ascension",
        "zone_code": "Ascension"
      }
    },
    {
      "type": "Feature",
      "geometry": {
        "type": "Point",
        "coordinates": [
          9.14,
          3.37
        ]
      },
      "properties": {
        "code": "ASENGEQUAT",
        "name": "Aseng",
        "country_code": "Equatorial Guinea",
        "zone_code": "Wele-Nzas"
      }
    },
    {
      "type": "Feature",
      "geometry": {
        "type": "Point",
        "coordinates": [
          49.52,
          14.67
        ]
      },
      "properties": {
        "code": "ASHSHIHRYE",
        "name": "Ash Shihr",
        "country_code": "Yemen",
        "zone_code": "Hadhramaut"
      }
    },
    {
      "type": "Feature",
      "geometry": {
        "type": "Point",
        "coordinates": [
          34.64,
          31.86
        ]
      },
      "properties": {
        "code": "ASHDODISRA",
        "name": "Ashdod",
        "country_code": "Israel",
        "zone_code": "Southern District"
      }
    },
    {
      "type": "Feature",
      "geometry": {
        "type": "Point",
        "coordinates": [
          34.64,
          31.83
        ]
      },
      "properties": {
        "code": "ASHDODISRA_1",
        "name": "Ashdod",
        "country_code": "Israel",
        "zone_code": "Southern District"
      }
    },
    {
      "type": "Feature",
      "geometry": {
        "type": "Point",
        "coordinates": [
          34.51,
          31.66
        ]
      },
      "properties": {
        "code": "ASHKELONIS",
        "name": "Ashkelon",
        "country_code": "Israel",
        "zone_code": "South District"
      }
    },
    {
      "type": "Feature",
      "geometry": {
        "type": "Point",
        "coordinates": [
          -80.81,
          41.92
        ]
      },
      "properties": {
        "code": "ASHTABULAU",
        "name": "Ashtabula",
        "country_code": "U.S.A.",
        "zone_code": "Ohio"
      }
    },
    {
      "type": "Feature",
      "geometry": {
        "type": "Point",
        "coordinates": [
          11.39,
          34.22
        ]
      },
      "properties": {
        "code": "ASHTARTTUN",
        "name": "Ashtart",
        "country_code": "Tunisia",
        "zone_code": "Tunisia"
      }
    },
    {
      "type": "Feature",
      "geometry": {
        "type": "Point",
        "coordinates": [
          127.25,
          -3.11
        ]
      },
      "properties": {
        "code": "BURUPASSAG",
        "name": "Buru Passage",
        "country_code": "Indonesia",
        "zone_code": "Maluku"
      }
    },
    {
      "type": "Feature",
      "geometry": {
        "type": "Point",
        "coordinates": [
          131.87,
          -4.0
        ]
      },
      "properties": {
        "code": "GORONGINDO",
        "name": "Gorong",
        "country_code": "Indonesia",
        "zone_code": "Maluku"
      }
    },
    {
      "type": "Feature",
      "geometry": {
        "type": "Point",
        "coordinates": [
          111.0,
          -6.08
        ]
      },
      "properties": {
        "code": "MANDALIKAI",
        "name": "Mandalika",
        "country_code": "Indonesia",
        "zone_code": "West Nusa Tenggara"
      }
    },
    {
      "type": "Feature",
      "geometry": {
        "type": "Point",
        "coordinates": [
          132.35,
          -6.58
        ]
      },
      "properties": {
        "code": "MOLUPASSAG",
        "name": "Molu Passage",
        "country_code": "Indonesia",
        "zone_code": "Indonesia"
      }
    },
    {
      "type": "Feature",
      "geometry": {
        "type": "Point",
        "coordinates": [
          122.31,
          -7.62
        ]
      },
      "properties": {
        "code": "PASIRLAYAR",
        "name": "Pasir Layaran",
        "country_code": "Indonesia",
        "zone_code": "West Java"
      }
    },
    {
      "type": "Feature",
      "geometry": {
        "type": "Point",
        "coordinates": [
          112.0,
          -5.51
        ]
      },
      "properties": {
        "code": "BAWEANINDO",
        "name": "Bawean",
        "country_code": "Indonesia",
        "zone_code": "East Java"
      }
    },
    {
      "type": "Feature",
      "geometry": {
        "type": "Point",
        "coordinates": [
          127.17,
          -7.63
        ]
      },
      "properties": {
        "code": "ROMANGINDO",
        "name": "Romang",
        "country_code": "Indonesia",
        "zone_code": "Maluku"
      }
    },
    {
      "type": "Feature",
      "geometry": {
        "type": "Point",
        "coordinates": [
          107.27,
          -2.0
        ]
      },
      "properties": {
        "code": "SELATGELAS",
        "name": "Selat Gelasa",
        "country_code": "Indonesia",
        "zone_code": "Indonesia"
      }
    },
    {
      "type": "Feature",
      "geometry": {
        "type": "Point",
        "coordinates": [
          125.32,
          -8.25
        ]
      },
      "properties": {
        "code": "SELATOMBAI",
        "name": "Selat Ombai",
        "country_code": "Indonesia",
        "zone_code": "Nusa Tenggara Timor"
      }
    },
    {
      "type": "Feature",
      "geometry": {
        "type": "Point",
        "coordinates": [
          11.09,
          55.67
        ]
      },
      "properties": {
        "code": "ASNSDENMAR",
        "name": "Asn\u00e6s",
        "country_code": "Denmark",
        "zone_code": "Region Zealand"
      }
    },
    {
      "type": "Feature",
      "geometry": {
        "type": "Point",
        "coordinates": [
          22.66,
          38.37
        ]
      },
      "properties": {
        "code": "ASPRASPITI",
        "name": "Aspra Spitia",
        "country_code": "Greece",
        "zone_code": "Viotia"
      }
    },
    {
      "type": "Feature",
      "geometry": {
        "type": "Point",
        "coordinates": [
          23.59,
          38.02
        ]
      },
      "properties": {
        "code": "ASPROPYRGO",
        "name": "Aspropyrgos",
        "country_code": "Greece",
        "zone_code": "Attica"
      }
    },
    {
      "type": "Feature",
      "geometry": {
        "type": "Point",
        "coordinates": [
          42.75,
          13.0
        ]
      },
      "properties": {
        "code": "ASSABERITR",
        "name": "Assab",
        "country_code": "Eritrea",
        "zone_code": "Debubawi Keyih Bahri"
      }
    },
    {
      "type": "Feature",
      "geometry": {
        "type": "Point",
        "coordinates": [
          52.51,
          27.52
        ]
      },
      "properties": {
        "code": "ASSALUYEHI",
        "name": "Assaluyeh",
        "country_code": "Iran",
        "zone_code": "Bushehr"
      }
    },
    {
      "type": "Feature",
      "geometry": {
        "type": "Point",
        "coordinates": [
          9.1,
          39.19
        ]
      },
      "properties": {
        "code": "ASSEMINIIT",
        "name": "Assemini",
        "country_code": "Italy",
        "zone_code": "Sardinia"
      }
    },
    {
      "type": "Feature",
      "geometry": {
        "type": "Point",
        "coordinates": [
          9.89,
          55.27
        ]
      },
      "properties": {
        "code": "ASSENSDENM",
        "name": "Assens",
        "country_code": "Denmark",
        "zone_code": "Region of Southern Denmark"
      }
    },
    {
      "type": "Feature",
      "geometry": {
        "type": "Point",
        "coordinates": [
          25.05,
          35.35
        ]
      },
      "properties": {
        "code": "ATHERINOLA",
        "name": "Atherinolakkos",
        "country_code": "Greece",
        "zone_code": "Crete"
      }
    },
    {
      "type": "Feature",
      "geometry": {
        "type": "Point",
        "coordinates": [
          -94.08,
          30.08
        ]
      },
      "properties": {
        "code": "ATRECOUSA",
        "name": "Atreco",
        "country_code": "U.S.A.",
        "zone_code": "MT"
      }
    },
    {
      "type": "Feature",
      "geometry": {
        "type": "Point",
        "coordinates": [
          137.08,
          34.67
        ]
      },
      "properties": {
        "code": "ATSUMIJAPA",
        "name": "Atsumi",
        "country_code": "Japan",
        "zone_code": "Yamagata"
      }
    },
    {
      "type": "Feature",
      "geometry": {
        "type": "Point",
        "coordinates": [
          172.59,
          53.16
        ]
      },
      "properties": {
        "code": "ATTUSTATIO",
        "name": "Attu Station",
        "country_code": "U.S.A.",
        "zone_code": "Alaska"
      }
    },
    {
      "type": "Feature",
      "geometry": {
        "type": "Point",
        "coordinates": [
          174.77,
          -36.84
        ]
      },
      "properties": {
        "code": "AUCKLANDNE",
        "name": "Auckland",
        "country_code": "New Zealand",
        "zone_code": "Auckland"
      }
    },
    {
      "type": "Feature",
      "geometry": {
        "type": "Point",
        "coordinates": [
          -9.06,
          52.65
        ]
      },
      "properties": {
        "code": "AUGHINISHI",
        "name": "Aughinish Island",
        "country_code": "Ireland",
        "zone_code": "County Limerick"
      }
    },
    {
      "type": "Feature",
      "geometry": {
        "type": "Point",
        "coordinates": [
          15.22,
          37.2
        ]
      },
      "properties": {
        "code": "AUGUSTAITA",
        "name": "Augusta",
        "country_code": "Italy",
        "zone_code": "Sicily"
      }
    },
    {
      "type": "Feature",
      "geometry": {
        "type": "Point",
        "coordinates": [
          -5.59,
          57.83
        ]
      },
      "properties": {
        "code": "AULTBEAUK",
        "name": "Aultbea",
        "country_code": "U.K.",
        "zone_code": "Scotland"
      }
    },
    {
      "type": "Feature",
      "geometry": {
        "type": "Point",
        "coordinates": [
          5.25,
          60.1
        ]
      },
      "properties": {
        "code": "AUSTEVOLLN",
        "name": "Austevoll",
        "country_code": "Norway",
        "zone_code": "Vestland"
      }
    },
    {
      "type": "Feature",
      "geometry": {
        "type": "Point",
        "coordinates": [
          -159.78,
          -21.2
        ]
      },
      "properties": {
        "code": "AVATIUCOOK",
        "name": "Avatiu",
        "country_code": "Cook Is.",
        "zone_code": "Rarotonga"
      }
    },
    {
      "type": "Feature",
      "geometry": {
        "type": "Point",
        "coordinates": [
          -8.71,
          40.66
        ]
      },
      "properties": {
        "code": "AVEIROPORT",
        "name": "Aveiro",
        "country_code": "Portugal",
        "zone_code": "Aveiro"
      }
    },
    {
      "type": "Feature",
      "geometry": {
        "type": "Point",
        "coordinates": [
          10.79,
          55.31
        ]
      },
      "properties": {
        "code": "AVERNAKKED",
        "name": "Avernakke",
        "country_code": "Denmark",
        "zone_code": "Region of Southern Denmark"
      }
    },
    {
      "type": "Feature",
      "geometry": {
        "type": "Point",
        "coordinates": [
          -5.92,
          43.56
        ]
      },
      "properties": {
        "code": "AVILESSPAI",
        "name": "Aviles",
        "country_code": "Spain",
        "zone_code": "Asturias"
      }
    },
    {
      "type": "Feature",
      "geometry": {
        "type": "Point",
        "coordinates": [
          -122.16,
          38.05
        ]
      },
      "properties": {
        "code": "AVONUSA",
        "name": "Avon",
        "country_code": "U.S.A.",
        "zone_code": "Indiana"
      }
    },
    {
      "type": "Feature",
      "geometry": {
        "type": "Point",
        "coordinates": [
          -122.09,
          38.05
        ]
      },
      "properties": {
        "code": "MARTINEZUS",
        "name": "Martinez",
        "country_code": "U.S.A.",
        "zone_code": "California"
      }
    },
    {
      "type": "Feature",
      "geometry": {
        "type": "Point",
        "coordinates": [
          -90.19,
          29.93
        ]
      },
      "properties": {
        "code": "AVONDALEUS",
        "name": "Avondale",
        "country_code": "U.S.A.",
        "zone_code": "Arizona"
      }
    },
    {
      "type": "Feature",
      "geometry": {
        "type": "Point",
        "coordinates": [
          -90.14,
          29.93
        ]
      },
      "properties": {
        "code": "AVONDALEUS_1",
        "name": "Avondale",
        "country_code": "U.S.A.",
        "zone_code": "Mississippi"
      }
    },
    {
      "type": "Feature",
      "geometry": {
        "type": "Point",
        "coordinates": [
          -90.18,
          29.93
        ]
      },
      "properties": {
        "code": "AVONDALEUS_2",
        "name": "Avondale",
        "country_code": "U.S.A.",
        "zone_code": "Mississippi"
      }
    },
    {
      "type": "Feature",
      "geometry": {
        "type": "Point",
        "coordinates": [
          -2.72,
          51.51
        ]
      },
      "properties": {
        "code": "AVONMOUTHU",
        "name": "Avonmouth",
        "country_code": "U.K.",
        "zone_code": "England"
      }
    },
    {
      "type": "Feature",
      "geometry": {
        "type": "Point",
        "coordinates": [
          3.81,
          51.34
        ]
      },
      "properties": {
        "code": "AXELNETHER",
        "name": "Axel",
        "country_code": "Netherlands",
        "zone_code": "Zeeland"
      }
    },
    {
      "type": "Feature",
      "geometry": {
        "type": "Point",
        "coordinates": [
          23.38,
          65.77
        ]
      },
      "properties": {
        "code": "AXELSVIKSW",
        "name": "Axelsvik",
        "country_code": "Sweden",
        "zone_code": "Stockholm County"
      }
    },
    {
      "type": "Feature",
      "geometry": {
        "type": "Point",
        "coordinates": [
          36.13,
          36.85
        ]
      },
      "properties": {
        "code": "SELAATALEB",
        "name": "Selaata",
        "country_code": "Lebanon",
        "zone_code": "North Governorate"
      }
    },
    {
      "type": "Feature",
      "geometry": {
        "type": "Point",
        "coordinates": [
          37.58,
          47.08
        ]
      },
      "properties": {
        "code": "MARIUPOLUK",
        "name": "Mariupol",
        "country_code": "Ukraine",
        "zone_code": "Donetsk Oblast"
      }
    },
    {
      "type": "Feature",
      "geometry": {
        "type": "Point",
        "coordinates": [
          10.98,
          -5.63
        ]
      },
      "properties": {
        "code": "POINTENOIR",
        "name": "Pointe-Noire",
        "country_code": "Congo",
        "zone_code": "Kouilou"
      }
    },
    {
      "type": "Feature",
      "geometry": {
        "type": "Point",
        "coordinates": [
          12.69,
          32.81
        ]
      },
      "properties": {
        "code": "AZZAWIYAHL",
        "name": "Az Zawiyah",
        "country_code": "Libya",
        "zone_code": "Jafara."
      }
    },
    {
      "type": "Feature",
      "geometry": {
        "type": "Point",
        "coordinates": [
          107.99,
          9.8
        ]
      },
      "properties": {
        "code": "HANOIVIETN",
        "name": "Hanoi",
        "country_code": "Vietnam",
        "zone_code": "Hanoi"
      }
    },
    {
      "type": "Feature",
      "geometry": {
        "type": "Point",
        "coordinates": [
          124.76,
          11.41
        ]
      },
      "properties": {
        "code": "BABATNGONP",
        "name": "Babatngon",
        "country_code": "Philippines",
        "zone_code": "Leyte"
      }
    },
    {
      "type": "Feature",
      "geometry": {
        "type": "Point",
        "coordinates": [
          107.99,
          9.8
        ]
      },
      "properties": {
        "code": "VUNGTAUVIE",
        "name": "Vung Tau",
        "country_code": "Vietnam",
        "zone_code": "Ba Ria-Vung Tau"
      }
    },
    {
      "type": "Feature",
      "geometry": {
        "type": "Point",
        "coordinates": [
          -71.16,
          9.94
        ]
      },
      "properties": {
        "code": "BACHAQUERO",
        "name": "Bachaquero",
        "country_code": "Venezuela",
        "zone_code": "Zulia"
      }
    },
    {
      "type": "Feature",
      "geometry": {
        "type": "Point",
        "coordinates": [
          122.93,
          10.69
        ]
      },
      "properties": {
        "code": "BACOLODPHI",
        "name": "Bacolod",
        "country_code": "Philippines",
        "zone_code": "Negros Occidental"
      }
    },
    {
      "type": "Feature",
      "geometry": {
        "type": "Point",
        "coordinates": [
          123.3,
          9.23
        ]
      },
      "properties": {
        "code": "BACONGPHIL",
        "name": "Bacong",
        "country_code": "Philippines",
        "zone_code": "Negros Oriental"
      }
    },
    {
      "type": "Feature",
      "geometry": {
        "type": "Point",
        "coordinates": [
          117.48,
          0.1
        ]
      },
      "properties": {
        "code": "BONTANGIND",
        "name": "Bontang",
        "country_code": "Indonesia",
        "zone_code": "East Kalimantan"
      }
    },
    {
      "type": "Feature",
      "geometry": {
        "type": "Point",
        "coordinates": [
          11.9,
          58.34
        ]
      },
      "properties": {
        "code": "BDOSWEDEN",
        "name": "B\u00e5do",
        "country_code": "Sweden",
        "zone_code": "V\u00e4stra G\u00f6taland"
      }
    },
    {
      "type": "Feature",
      "geometry": {
        "type": "Point",
        "coordinates": [
          27.91,
          40.38
        ]
      },
      "properties": {
        "code": "BANDIRMATU",
        "name": "Band\u0131rma",
        "country_code": "Turkey",
        "zone_code": "Bal\u0131kesir"
      }
    },
    {
      "type": "Feature",
      "geometry": {
        "type": "Point",
        "coordinates": [
          -3.84,
          51.62
        ]
      },
      "properties": {
        "code": "BAGLANUK",
        "name": "Baglan",
        "country_code": "U.K.",
        "zone_code": "Wales"
      }
    },
    {
      "type": "Feature",
      "geometry": {
        "type": "Point",
        "coordinates": [
          -62.27,
          -38.79
        ]
      },
      "properties": {
        "code": "BAHABLANCA",
        "name": "Bah\u00eda Blanca",
        "country_code": "Argentina",
        "zone_code": "Buenos Aires"
      }
    },
    {
      "type": "Feature",
      "geometry": {
        "type": "Point",
        "coordinates": [
          -62.29,
          -38.79
        ]
      },
      "properties": {
        "code": "BAHABLANCA_1",
        "name": "Bah\u00eda Blanca",
        "country_code": "Argentina",
        "zone_code": "Buenos Aires"
      }
    },
    {
      "type": "Feature",
      "geometry": {
        "type": "Point",
        "coordinates": [
          -74.05,
          -52.92
        ]
      },
      "properties": {
        "code": "BAHIAFELIX",
        "name": "Bahia Felix",
        "country_code": "Chile",
        "zone_code": "Magallanes and Chilean Antarctica"
      }
    },
    {
      "type": "Feature",
      "geometry": {
        "type": "Point",
        "coordinates": [
          -79.82,
          9.4
        ]
      },
      "properties": {
        "code": "BAHALASMIN",
        "name": "Bah\u00eda Las Minas",
        "country_code": "Panama",
        "zone_code": "Col\u00f3n"
      }
    },
    {
      "type": "Feature",
      "geometry": {
        "type": "Point",
        "coordinates": [
          -69.03,
          -52.37
        ]
      },
      "properties": {
        "code": "BAHAPOSESI",
        "name": "Bah\u00eda Posesi\u00f3n",
        "country_code": "Chile",
        "zone_code": "Magallanes y de la Ant\u00e1rtica Chilena"
      }
    },
    {
      "type": "Feature",
      "geometry": {
        "type": "Point",
        "coordinates": [
          50.68,
          26.17
        ]
      },
      "properties": {
        "code": "MANAMABAHR",
        "name": "Manama",
        "country_code": "Bahrain",
        "zone_code": "Bahrain"
      }
    },
    {
      "type": "Feature",
      "geometry": {
        "type": "Point",
        "coordinates": [
          50.17,
          29.72
        ]
      },
      "properties": {
        "code": "BAHREGANIR",
        "name": "Bahregan",
        "country_code": "Iran",
        "zone_code": "Bushehr"
      }
    },
    {
      "type": "Feature",
      "geometry": {
        "type": "Point",
        "coordinates": [
          -68.13,
          49.26
        ]
      },
      "properties": {
        "code": "BAIECOMEAU",
        "name": "Baie-Comeau",
        "country_code": "Canada",
        "zone_code": "Quebec"
      }
    },
    {
      "type": "Feature",
      "geometry": {
        "type": "Point",
        "coordinates": [
          166.43,
          -22.26
        ]
      },
      "properties": {
        "code": "DUMBANEWCA",
        "name": "Dumb\u00e9a",
        "country_code": "New Caledonia",
        "zone_code": "South Province"
      }
    },
    {
      "type": "Feature",
      "geometry": {
        "type": "Point",
        "coordinates": [
          -68.13,
          49.23
        ]
      },
      "properties": {
        "code": "BAIECOMEAU_1",
        "name": "Baie-Comeau",
        "country_code": "Canada",
        "zone_code": "Quebec"
      }
    },
    {
      "type": "Feature",
      "geometry": {
        "type": "Point",
        "coordinates": [
          74.12,
          14.81
        ]
      },
      "properties": {
        "code": "BAITKALIND",
        "name": "Baitkal",
        "country_code": "India",
        "zone_code": "Karnataka"
      }
    },
    {
      "type": "Feature",
      "geometry": {
        "type": "Point",
        "coordinates": [
          -71.6,
          10.51
        ]
      },
      "properties": {
        "code": "BAJOGRANDE",
        "name": "Bajo Grande",
        "country_code": "Venezuela",
        "zone_code": "Zulia"
      }
    },
    {
      "type": "Feature",
      "geometry": {
        "type": "Point",
        "coordinates": [
          14.55,
          45.3
        ]
      },
      "properties": {
        "code": "BAKARCROAT",
        "name": "Bakar",
        "country_code": "Croatia",
        "zone_code": "Primorje-Gorski Kotar"
      }
    },
    {
      "type": "Feature",
      "geometry": {
        "type": "Point",
        "coordinates": [
          40.53,
          64.53
        ]
      },
      "properties": {
        "code": "BAKARISTAR",
        "name": "Bakarista",
        "country_code": "Russia",
        "zone_code": "Russia"
      }
    },
    {
      "type": "Feature",
      "geometry": {
        "type": "Point",
        "coordinates": [
          48.17,
          13.96
        ]
      },
      "properties": {
        "code": "BALHAFYEME",
        "name": "Balhaf",
        "country_code": "Yemen",
        "zone_code": "Shabwah"
      }
    },
    {
      "type": "Feature",
      "geometry": {
        "type": "Point",
        "coordinates": [
          117.22,
          7.96
        ]
      },
      "properties": {
        "code": "BALABACPHI",
        "name": "Balabac",
        "country_code": "Philippines",
        "zone_code": "Palawan"
      }
    },
    {
      "type": "Feature",
      "geometry": {
        "type": "Point",
        "coordinates": [
          -79.72,
          1.05
        ]
      },
      "properties": {
        "code": "BALAOECUAD",
        "name": "Balao",
        "country_code": "Ecuador",
        "zone_code": "Guayas"
      }
    },
    {
      "type": "Feature",
      "geometry": {
        "type": "Point",
        "coordinates": [
          -79.57,
          8.95
        ]
      },
      "properties": {
        "code": "BALBOAPANA",
        "name": "Balboa",
        "country_code": "Panama",
        "zone_code": "Panam\u00e1"
      }
    },
    {
      "type": "Feature",
      "geometry": {
        "type": "Point",
        "coordinates": [
          -79.57,
          8.97
        ]
      },
      "properties": {
        "code": "BALBOAPANA_1",
        "name": "Balboa",
        "country_code": "Panama",
        "zone_code": "Panama"
      }
    },
    {
      "type": "Feature",
      "geometry": {
        "type": "Point",
        "coordinates": [
          28.18,
          43.38
        ]
      },
      "properties": {
        "code": "BALCHIKBUL",
        "name": "Balchik",
        "country_code": "Bulgaria",
        "zone_code": "Dobrich"
      }
    },
    {
      "type": "Feature",
      "geometry": {
        "type": "Point",
        "coordinates": [
          116.81,
          -1.26
        ]
      },
      "properties": {
        "code": "BALIKPAPAN",
        "name": "Balikpapan",
        "country_code": "Indonesia",
        "zone_code": "East Kalimantan"
      }
    },
    {
      "type": "Feature",
      "geometry": {
        "type": "Point",
        "coordinates": [
          116.78,
          -1.2
        ]
      },
      "properties": {
        "code": "BALIKPAPAN_1",
        "name": "Balikpapan",
        "country_code": "Indonesia",
        "zone_code": "East Kalimantan"
      }
    },
    {
      "type": "Feature",
      "geometry": {
        "type": "Point",
        "coordinates": [
          121.87,
          19.88
        ]
      },
      "properties": {
        "code": "BALINTANGC",
        "name": "Balintang Channel",
        "country_code": "Philippines",
        "zone_code": "Ilocos Region"
      }
    },
    {
      "type": "Feature",
      "geometry": {
        "type": "Point",
        "coordinates": [
          151.21,
          -33.85
        ]
      },
      "properties": {
        "code": "SYDNEYAUST",
        "name": "Sydney",
        "country_code": "Australia",
        "zone_code": "New South Wales"
      }
    },
    {
      "type": "Feature",
      "geometry": {
        "type": "Point",
        "coordinates": [
          -5.79,
          54.84
        ]
      },
      "properties": {
        "code": "BALLYLUMFO",
        "name": "Ballylumford",
        "country_code": "U.K.",
        "zone_code": "Northern Ireland"
      }
    },
    {
      "type": "Feature",
      "geometry": {
        "type": "Point",
        "coordinates": [
          151.21,
          -33.85
        ]
      },
      "properties": {
        "code": "BALMAINAUS",
        "name": "Balmain",
        "country_code": "Australia",
        "zone_code": "New South Wales"
      }
    },
    {
      "type": "Feature",
      "geometry": {
        "type": "Point",
        "coordinates": [
          108.46,
          -6.23
        ]
      },
      "properties": {
        "code": "INDRAMAYUI",
        "name": "Indramayu",
        "country_code": "Indonesia",
        "zone_code": "West Java"
      }
    },
    {
      "type": "Feature",
      "geometry": {
        "type": "Point",
        "coordinates": [
          -76.57,
          39.27
        ]
      },
      "properties": {
        "code": "BALTIMOREU",
        "name": "Baltimore",
        "country_code": "U.S.A.",
        "zone_code": "Maryland"
      }
    },
    {
      "type": "Feature",
      "geometry": {
        "type": "Point",
        "coordinates": [
          -76.57,
          39.22
        ]
      },
      "properties": {
        "code": "BALTIMOREU_1",
        "name": "Baltimore",
        "country_code": "U.S.A.",
        "zone_code": "Maryland"
      }
    },
    {
      "type": "Feature",
      "geometry": {
        "type": "Point",
        "coordinates": [
          -76.54,
          39.24
        ]
      },
      "properties": {
        "code": "BALTIMOREU_2",
        "name": "Baltimore",
        "country_code": "U.S.A.",
        "zone_code": "Maryland"
      }
    },
    {
      "type": "Feature",
      "geometry": {
        "type": "Point",
        "coordinates": [
          -76.57,
          39.26
        ]
      },
      "properties": {
        "code": "BALTIMOREU_3",
        "name": "Baltimore",
        "country_code": "U.S.A.",
        "zone_code": "Maryland"
      }
    },
    {
      "type": "Feature",
      "geometry": {
        "type": "Point",
        "coordinates": [
          -76.59,
          39.28
        ]
      },
      "properties": {
        "code": "BALTIMOREU_4",
        "name": "Baltimore",
        "country_code": "U.S.A.",
        "zone_code": "Maryland"
      }
    },
    {
      "type": "Feature",
      "geometry": {
        "type": "Point",
        "coordinates": [
          -76.58,
          39.27
        ]
      },
      "properties": {
        "code": "BALTIMOREU_5",
        "name": "Baltimore",
        "country_code": "U.S.A.",
        "zone_code": "Maryland"
      }
    },
    {
      "type": "Feature",
      "geometry": {
        "type": "Point",
        "coordinates": [
          -76.6,
          39.26
        ]
      },
      "properties": {
        "code": "BALTIMOREU_6",
        "name": "Baltimore",
        "country_code": "U.S.A.",
        "zone_code": "Maryland"
      }
    },
    {
      "type": "Feature",
      "geometry": {
        "type": "Point",
        "coordinates": [
          -76.55,
          39.26
        ]
      },
      "properties": {
        "code": "BALTIMOREU_7",
        "name": "Baltimore",
        "country_code": "U.S.A.",
        "zone_code": "Maryland"
      }
    },
    {
      "type": "Feature",
      "geometry": {
        "type": "Point",
        "coordinates": [
          -76.48,
          39.21
        ]
      },
      "properties": {
        "code": "BALTIMOREU_8",
        "name": "Baltimore",
        "country_code": "U.S.A.",
        "zone_code": "Maryland"
      }
    },
    {
      "type": "Feature",
      "geometry": {
        "type": "Point",
        "coordinates": [
          -76.5,
          39.22
        ]
      },
      "properties": {
        "code": "BALTIMOREU_9",
        "name": "Baltimore",
        "country_code": "U.S.A.",
        "zone_code": "Maryland"
      }
    },
    {
      "type": "Feature",
      "geometry": {
        "type": "Point",
        "coordinates": [
          19.92,
          54.63
        ]
      },
      "properties": {
        "code": "BALTIYSKRU",
        "name": "Baltiysk",
        "country_code": "Russia",
        "zone_code": "Kaliningrad Oblast"
      }
    },
    {
      "type": "Feature",
      "geometry": {
        "type": "Point",
        "coordinates": [
          122.93,
          10.69
        ]
      },
      "properties": {
        "code": "BANAGOPHIL",
        "name": "Banago",
        "country_code": "Philippines",
        "zone_code": "Negros Occidental"
      }
    },
    {
      "type": "Feature",
      "geometry": {
        "type": "Point",
        "coordinates": [
          12.4,
          -6.04
        ]
      },
      "properties": {
        "code": "BANANACONG",
        "name": "Banana",
        "country_code": "Congo, D.R.",
        "zone_code": "Kongo Central"
      }
    },
    {
      "type": "Feature",
      "geometry": {
        "type": "Point",
        "coordinates": [
          -4.02,
          5.27
        ]
      },
      "properties": {
        "code": "BANCOBAYIV",
        "name": "Banco Bay",
        "country_code": "Ivory Coast",
        "zone_code": "Lagunes Region"
      }
    },
    {
      "type": "Feature",
      "geometry": {
        "type": "Point",
        "coordinates": [
          56.2,
          27.14
        ]
      },
      "properties": {
        "code": "BANDARABBA",
        "name": "Bandar Abbas",
        "country_code": "Iran",
        "zone_code": "Hormozgan"
      }
    },
    {
      "type": "Feature",
      "geometry": {
        "type": "Point",
        "coordinates": [
          52.51,
          27.52
        ]
      },
      "properties": {
        "code": "BANDARASAL",
        "name": "Bandar Asaluyeh",
        "country_code": "Iran",
        "zone_code": "Bushehr"
      }
    },
    {
      "type": "Feature",
      "geometry": {
        "type": "Point",
        "coordinates": [
          56.07,
          27.09
        ]
      },
      "properties": {
        "code": "BANDARABBA_1",
        "name": "Bandar Abbas",
        "country_code": "Iran",
        "zone_code": "Hormozgan"
      }
    },
    {
      "type": "Feature",
      "geometry": {
        "type": "Point",
        "coordinates": [
          49.09,
          30.42
        ]
      },
      "properties": {
        "code": "BANDARIMAM",
        "name": "Bandar Imam Khomeini",
        "country_code": "Iran",
        "zone_code": "Khuzestan"
      }
    },
    {
      "type": "Feature",
      "geometry": {
        "type": "Point",
        "coordinates": [
          49.18,
          30.46
        ]
      },
      "properties": {
        "code": "BANDARMAHS",
        "name": "Bandar Mahshahr",
        "country_code": "Iran",
        "zone_code": "Khuzestan"
      }
    },
    {
      "type": "Feature",
      "geometry": {
        "type": "Point",
        "coordinates": [
          56.2,
          27.14
        ]
      },
      "properties": {
        "code": "BANDARSHAH",
        "name": "Bandar Shahid Bahonar",
        "country_code": "Iran",
        "zone_code": "Hormozgan"
      }
    },
    {
      "type": "Feature",
      "geometry": {
        "type": "Point",
        "coordinates": [
          56.2,
          27.14
        ]
      },
      "properties": {
        "code": "BANDARSHAH_1",
        "name": "Bandar Shahid Rajaee",
        "country_code": "Iran",
        "zone_code": "Hormozgan"
      }
    },
    {
      "type": "Feature",
      "geometry": {
        "type": "Point",
        "coordinates": [
          52.35,
          27.63
        ]
      },
      "properties": {
        "code": "BANDARTAHE",
        "name": "Bandar Taheri",
        "country_code": "Iran",
        "zone_code": "Bushehr"
      }
    },
    {
      "type": "Feature",
      "geometry": {
        "type": "Point",
        "coordinates": [
          27.96,
          40.35
        ]
      },
      "properties": {
        "code": "BANDIRMATU_1",
        "name": "Bandirma",
        "country_code": "Turkey",
        "zone_code": "Balikesir"
      }
    },
    {
      "type": "Feature",
      "geometry": {
        "type": "Point",
        "coordinates": [
          100.52,
          13.68
        ]
      },
      "properties": {
        "code": "BANGHUASUA",
        "name": "Bang Hua Sua",
        "country_code": "Thailand",
        "zone_code": "Chon Buri"
      }
    },
    {
      "type": "Feature",
      "geometry": {
        "type": "Point",
        "coordinates": [
          105.14,
          -1.8
        ]
      },
      "properties": {
        "code": "PANGKALPIN",
        "name": "Pangkal Pinang",
        "country_code": "Indonesia",
        "zone_code": "Bangka Belitung Islands"
      }
    },
    {
      "type": "Feature",
      "geometry": {
        "type": "Point",
        "coordinates": [
          125.21,
          1.95
        ]
      },
      "properties": {
        "code": "BANGKAINDO",
        "name": "Bangka",
        "country_code": "Indonesia",
        "zone_code": "Bangka Belitung Islands"
      }
    },
    {
      "type": "Feature",
      "geometry": {
        "type": "Point",
        "coordinates": [
          100.52,
          13.68
        ]
      },
      "properties": {
        "code": "BANGKOKTHA",
        "name": "Bangkok",
        "country_code": "Thailand",
        "zone_code": "Bangkok Province"
      }
    },
    {
      "type": "Feature",
      "geometry": {
        "type": "Point",
        "coordinates": [
          35.92,
          35.23
        ]
      },
      "properties": {
        "code": "BANIASSYRI",
        "name": "Banias",
        "country_code": "Syria",
        "zone_code": "Tartus"
      }
    },
    {
      "type": "Feature",
      "geometry": {
        "type": "Point",
        "coordinates": [
          114.56,
          -3.33
        ]
      },
      "properties": {
        "code": "BANJARMASI",
        "name": "Banjarmasin",
        "country_code": "Indonesia",
        "zone_code": "South Kalimantan"
      }
    },
    {
      "type": "Feature",
      "geometry": {
        "type": "Point",
        "coordinates": [
          114.43,
          -3.67
        ]
      },
      "properties": {
        "code": "BANJARMASI_1",
        "name": "Banjarmasin",
        "country_code": "Indonesia",
        "zone_code": "South Kalimantan"
      }
    },
    {
      "type": "Feature",
      "geometry": {
        "type": "Point",
        "coordinates": [
          -16.57,
          13.44
        ]
      },
      "properties": {
        "code": "BANJULGAMB",
        "name": "Banjul",
        "country_code": "Gambia",
        "zone_code": "Banjul"
      }
    },
    {
      "type": "Feature",
      "geometry": {
        "type": "Point",
        "coordinates": [
          105.97,
          -6.0
        ]
      },
      "properties": {
        "code": "BANTENINDO",
        "name": "Banten",
        "country_code": "Indonesia",
        "zone_code": "Banten"
      }
    },
    {
      "type": "Feature",
      "geometry": {
        "type": "Point",
        "coordinates": [
          -9.54,
          51.7
        ]
      },
      "properties": {
        "code": "BANTRYIREL",
        "name": "Bantry",
        "country_code": "Ireland",
        "zone_code": "County Cork"
      }
    },
    {
      "type": "Feature",
      "geometry": {
        "type": "Point",
        "coordinates": [
          -4.53,
          4.94
        ]
      },
      "properties": {
        "code": "SANPEDROIV",
        "name": "San Pedro",
        "country_code": "Ivory Coast",
        "zone_code": "C\u00f4te d'Ivoire"
      }
    },
    {
      "type": "Feature",
      "geometry": {
        "type": "Point",
        "coordinates": [
          -4.53,
          4.94
        ]
      },
      "properties": {
        "code": "SANPEDROIV_1",
        "name": "San Pedro",
        "country_code": "Ivory Coast",
        "zone_code": "Bas-Sassandra"
      }
    },
    {
      "type": "Feature",
      "geometry": {
        "type": "Point",
        "coordinates": [
          121.5,
          31.37
        ]
      },
      "properties": {
        "code": "BAOSHANCHI",
        "name": "Baoshan",
        "country_code": "China",
        "zone_code": "Yunnan"
      }
    },
    {
      "type": "Feature",
      "geometry": {
        "type": "Point",
        "coordinates": [
          19.08,
          42.1
        ]
      },
      "properties": {
        "code": "BARMONTENE",
        "name": "Bar",
        "country_code": "Montenegro",
        "zone_code": "Montenegro"
      }
    },
    {
      "type": "Feature",
      "geometry": {
        "type": "Point",
        "coordinates": [
          -59.63,
          13.1
        ]
      },
      "properties": {
        "code": "BRIDGETOWN",
        "name": "Bridgetown",
        "country_code": "Barbados",
        "zone_code": "Saint Michael"
      }
    },
    {
      "type": "Feature",
      "geometry": {
        "type": "Point",
        "coordinates": [
          -59.63,
          13.11
        ]
      },
      "properties": {
        "code": "BRIDGETOWN_1",
        "name": "Bridgetown",
        "country_code": "Barbados",
        "zone_code": "Saint Michael"
      }
    },
    {
      "type": "Feature",
      "geometry": {
        "type": "Point",
        "coordinates": [
          -158.09,
          21.27
        ]
      },
      "properties": {
        "code": "KAPOLEIUSA",
        "name": "Kapolei",
        "country_code": "U.S.A.",
        "zone_code": "Hawaii"
      }
    },
    {
      "type": "Feature",
      "geometry": {
        "type": "Point",
        "coordinates": [
          -95.29,
          29.75
        ]
      },
      "properties": {
        "code": "LAPORTEUSA",
        "name": "La Porte",
        "country_code": "U.S.A.",
        "zone_code": "Texas"
      }
    },
    {
      "type": "Feature",
      "geometry": {
        "type": "Point",
        "coordinates": [
          -95.01,
          29.68
        ]
      },
      "properties": {
        "code": "LAPORTEUSA_1",
        "name": "La Porte",
        "country_code": "U.S.A.",
        "zone_code": "Texas"
      }
    },
    {
      "type": "Feature",
      "geometry": {
        "type": "Point",
        "coordinates": [
          -70.0,
          12.48
        ]
      },
      "properties": {
        "code": "BARCADERAA",
        "name": "Barcadera",
        "country_code": "Aruba",
        "zone_code": "Aruba"
      }
    },
    {
      "type": "Feature",
      "geometry": {
        "type": "Point",
        "coordinates": [
          -48.77,
          -1.54
        ]
      },
      "properties": {
        "code": "BARCARENAB",
        "name": "Barcarena",
        "country_code": "Brazil",
        "zone_code": "Par\u00e1"
      }
    },
    {
      "type": "Feature",
      "geometry": {
        "type": "Point",
        "coordinates": [
          2.16,
          41.34
        ]
      },
      "properties": {
        "code": "BARCELONAS",
        "name": "Barcelona",
        "country_code": "Spain",
        "zone_code": "Catalonia"
      }
    },
    {
      "type": "Feature",
      "geometry": {
        "type": "Point",
        "coordinates": [
          2.17,
          41.35
        ]
      },
      "properties": {
        "code": "BARCELONAS_1",
        "name": "Barcelona",
        "country_code": "Spain",
        "zone_code": "Spain"
      }
    },
    {
      "type": "Feature",
      "geometry": {
        "type": "Point",
        "coordinates": [
          16.86,
          41.14
        ]
      },
      "properties": {
        "code": "BARIITALY",
        "name": "Bari",
        "country_code": "Italy",
        "zone_code": "Apulia"
      }
    },
    {
      "type": "Feature",
      "geometry": {
        "type": "Point",
        "coordinates": [
          107.03,
          10.59
        ]
      },
      "properties": {
        "code": "VUNGTAUVIE_1",
        "name": "Vung Tau",
        "country_code": "Vietnam",
        "zone_code": "Ba Ria-Vung Tau"
      }
    },
    {
      "type": "Feature",
      "geometry": {
        "type": "Point",
        "coordinates": [
          50.17,
          29.72
        ]
      },
      "properties": {
        "code": "BARKANIRAN",
        "name": "Barkan",
        "country_code": "Iran",
        "zone_code": "Mazandaran"
      }
    },
    {
      "type": "Feature",
      "geometry": {
        "type": "Point",
        "coordinates": [
          0.12,
          51.51
        ]
      },
      "properties": {
        "code": "BARKINGUK",
        "name": "Barking",
        "country_code": "U.K.",
        "zone_code": "England"
      }
    },
    {
      "type": "Feature",
      "geometry": {
        "type": "Point",
        "coordinates": [
          -46.3,
          -23.97
        ]
      },
      "properties": {
        "code": "RIODEJANEI_2",
        "name": "Rio de Janeiro",
        "country_code": "Brazil",
        "zone_code": "Rio de Janeiro"
      }
    },
    {
      "type": "Feature",
      "geometry": {
        "type": "Point",
        "coordinates": [
          151.24,
          -23.82
        ]
      },
      "properties": {
        "code": "GLADSTONEA",
        "name": "Gladstone",
        "country_code": "Australia",
        "zone_code": "Queensland"
      }
    },
    {
      "type": "Feature",
      "geometry": {
        "type": "Point",
        "coordinates": [
          -70.65,
          -26.35
        ]
      },
      "properties": {
        "code": "BARQUITOCH",
        "name": "Barquito",
        "country_code": "Chile",
        "zone_code": "Atacama"
      }
    },
    {
      "type": "Feature",
      "geometry": {
        "type": "Point",
        "coordinates": [
          -7.49,
          56.95
        ]
      },
      "properties": {
        "code": "BARRAUK",
        "name": "Barra",
        "country_code": "U.K.",
        "zone_code": "Scotland"
      }
    },